{
    "Sheet1": [
        {
            "pgmSysId": "34",
            "primaryName": "Rollins",
            "facAddr": "15531 Arrow Head Lane",
            "cityName": "Colfax",
            "stateName": "California",
            "postalCode": "95713",
            "latitude": "39.134259",
            "longitude": "-120.953341",
            "GEOID": "6061",
            "CountyState1": "Placer County (California)",
            "CountyState2": "Placer County (CA)"
        },
        {
            "pgmSysId": "72",
            "primaryName": "Venice",
            "facAddr": "3815 Sepulveda Blvd",
            "cityName": "Culver City",
            "stateName": "California",
            "postalCode": "90230",
            "latitude": "34.01232",
            "longitude": "-118.416723",
            "GEOID": "6037",
            "CountyState1": "Los Angeles County (California)",
            "CountyState2": "Los Angeles County (CA)"
        },
        {
            "pgmSysId": "104",
            "primaryName": "J S Eastwood",
            "facAddr": "Hwy 168 Sierra National Forest",
            "cityName": "Shaver Lake",
            "stateName": "California",
            "postalCode": "93664",
            "latitude": "37.147926",
            "longitude": "-119.2567",
            "GEOID": "6019",
            "CountyState1": "Fresno County (California)",
            "CountyState2": "Fresno County (CA)"
        },
        {
            "pgmSysId": "151",
            "primaryName": "Modesto Irrigation Unit 1&2",
            "facAddr": "639 South Mcclure Road",
            "cityName": "Modesto",
            "stateName": "California",
            "postalCode": "95357-0520",
            "latitude": "37.62987",
            "longitude": "-120.92977",
            "GEOID": "6099",
            "CountyState1": "Stanislaus County (California)",
            "CountyState2": "Stanislaus County (CA)"
        },
        {
            "pgmSysId": "161",
            "primaryName": "Turlock Lake",
            "facAddr": "21642 Davis Road",
            "cityName": "Hickman",
            "stateName": "California",
            "postalCode": "95323",
            "latitude": "37.6126",
            "longitude": "-120.59754",
            "GEOID": "6099",
            "CountyState1": "Stanislaus County (California)",
            "CountyState2": "Stanislaus County (CA)"
        },
        {
            "pgmSysId": "162",
            "primaryName": "Hickman",
            "facAddr": "779 Main Canal",
            "cityName": "Hickman",
            "stateName": "California",
            "postalCode": "95323",
            "latitude": "37.621536",
            "longitude": "-120.746247",
            "GEOID": "6099",
            "CountyState1": "Stanislaus County (California)",
            "CountyState2": "Stanislaus County (CA)"
        },
        {
            "pgmSysId": "180",
            "primaryName": "Pg&E - Volta 2 Powerhouse",
            "facAddr": "Volta Powerhouse Road",
            "cityName": "Manton",
            "stateName": "California",
            "postalCode": "96059",
            "latitude": "40.4552",
            "longitude": "-121.86565",
            "GEOID": "6089",
            "CountyState1": "Shasta County (California)",
            "CountyState2": "Shasta County (CA)"
        },
        {
            "pgmSysId": "214",
            "primaryName": "Alta Powerhouse",
            "facAddr": "* Not Given",
            "cityName": "Foresthill",
            "stateName": "California",
            "postalCode": "95631",
            "latitude": "39.215979",
            "longitude": "-120.80355",
            "GEOID": "6061",
            "CountyState1": "Placer County (California)",
            "CountyState2": "Placer County (CA)"
        },
        {
            "pgmSysId": "215",
            "primaryName": "P G E Angels Camp Hydro Ctr & Hydro Plan",
            "facAddr": "1168 Booster Way",
            "cityName": "Angels Camp",
            "stateName": "California",
            "postalCode": "95222",
            "latitude": "38.07255",
            "longitude": "-120.53956",
            "GEOID": "6009",
            "CountyState1": "Calaveras County (California)",
            "CountyState2": "Calaveras County (CA)"
        },
        {
            "pgmSysId": "217",
            "primaryName": "Balch 1",
            "facAddr": "Trimmer Springs Rd",
            "cityName": "Balch Camp",
            "stateName": "California",
            "postalCode": "93649",
            "latitude": "36.909137",
            "longitude": "-119.087712",
            "GEOID": "6019",
            "CountyState1": "Fresno County (California)",
            "CountyState2": "Fresno County (CA)"
        },
        {
            "pgmSysId": "218",
            "primaryName": "Balch 2",
            "facAddr": "Trimmer Springs Rd",
            "cityName": "Balch Camp",
            "stateName": "California",
            "postalCode": "93649",
            "latitude": "36.908907",
            "longitude": "-119.087556",
            "GEOID": "6019",
            "CountyState1": "Fresno County (California)",
            "CountyState2": "Fresno County (CA)"
        },
        {
            "pgmSysId": "219",
            "primaryName": "Belden",
            "facAddr": "Na",
            "cityName": "Belden",
            "stateName": "California",
            "postalCode": "95915",
            "latitude": "40.007445",
            "longitude": "-121.249438",
            "GEOID": "6063",
            "CountyState1": "Plumas County (California)",
            "CountyState2": "Plumas County (CA)"
        },
        {
            "pgmSysId": "220",
            "primaryName": "Bucks Creek",
            "facAddr": "Na",
            "cityName": "Storrie",
            "stateName": "California",
            "postalCode": "95980",
            "latitude": "39.91062",
            "longitude": "-121.327692",
            "GEOID": "6063",
            "CountyState1": "Plumas County (California)",
            "CountyState2": "Plumas County (CA)"
        },
        {
            "pgmSysId": "221",
            "primaryName": "Butt Valley",
            "facAddr": "Caribou-Pratville Road",
            "cityName": "Belden",
            "stateName": "California",
            "postalCode": "95915",
            "latitude": "40.175656",
            "longitude": "-121.190663",
            "GEOID": "6063",
            "CountyState1": "Plumas County (California)",
            "CountyState2": "Plumas County (CA)"
        },
        {
            "pgmSysId": "222",
            "primaryName": "Caribou 1",
            "facAddr": "1000 Caribou Road",
            "cityName": "Belden",
            "stateName": "California",
            "postalCode": "95915",
            "latitude": "40.085476",
            "longitude": "-121.148241",
            "GEOID": "6063",
            "CountyState1": "Plumas County (California)",
            "CountyState2": "Plumas County (CA)"
        },
        {
            "pgmSysId": "223",
            "primaryName": "Caribou 2",
            "facAddr": "1000 Caribou Road",
            "cityName": "Belden",
            "stateName": "California",
            "postalCode": "95915",
            "latitude": "40.085997",
            "longitude": "-121.149373",
            "GEOID": "6063",
            "CountyState1": "Plumas County (California)",
            "CountyState2": "Plumas County (CA)"
        },
        {
            "pgmSysId": "224",
            "primaryName": "Centerville",
            "facAddr": "Nimshew Stage Road",
            "cityName": "Chico",
            "stateName": "California",
            "postalCode": "95927",
            "latitude": "39.788877",
            "longitude": "-121.657383",
            "GEOID": "6007",
            "CountyState1": "Butte County (California)",
            "CountyState2": "Butte County (CA)"
        },
        {
            "pgmSysId": "225",
            "primaryName": "Chili Bar",
            "facAddr": "Highway 193",
            "cityName": "Placerville",
            "stateName": "California",
            "postalCode": "95667",
            "latitude": "38.771764",
            "longitude": "-120.813239",
            "GEOID": "6017",
            "CountyState1": "El Dorado County (California)",
            "CountyState2": "El Dorado County (CA)"
        },
        {
            "pgmSysId": "226",
            "primaryName": "Coal Canyon",
            "facAddr": "Coal Canyon Rd. Rural Route 1",
            "cityName": "Oroville",
            "stateName": "California",
            "postalCode": "95965",
            "latitude": "39.605043",
            "longitude": "-121.600525",
            "GEOID": "6007",
            "CountyState1": "Butte County (California)",
            "CountyState2": "Butte County (CA)"
        },
        {
            "pgmSysId": "227",
            "primaryName": "Coleman",
            "facAddr": "Coleman Fish Hatchery Road",
            "cityName": "Anderson",
            "stateName": "California",
            "postalCode": "96007",
            "latitude": "40.404645",
            "longitude": "-122.121904",
            "GEOID": "6089",
            "CountyState1": "Shasta County (California)",
            "CountyState2": "Shasta County (CA)"
        },
        {
            "pgmSysId": "228",
            "primaryName": "Contra Costa Generating Station",
            "facAddr": "3201 Wilbur Avenue",
            "cityName": "Antioch",
            "stateName": "California",
            "postalCode": "94509-8546",
            "latitude": "38.018333",
            "longitude": "-121.761389",
            "GEOID": "6013",
            "CountyState1": "Contra Costa County (California)",
            "CountyState2": "Contra Costa County (CA)"
        },
        {
            "pgmSysId": "229",
            "primaryName": "Cow Creek",
            "facAddr": "South Cow Creek Road",
            "cityName": "Millville",
            "stateName": "California",
            "postalCode": "96062",
            "latitude": "40.570817",
            "longitude": "-122.02093",
            "GEOID": "6089",
            "CountyState1": "Shasta County (California)",
            "CountyState2": "Shasta County (CA)"
        },
        {
            "pgmSysId": "231",
            "primaryName": "Cresta",
            "facAddr": "Na",
            "cityName": "Storrie",
            "stateName": "California",
            "postalCode": "95980",
            "latitude": "39.8763",
            "longitude": "-121.3729",
            "GEOID": "6063",
            "CountyState1": "Plumas County (California)",
            "CountyState2": "Plumas County (CA)"
        },
        {
            "pgmSysId": "232",
            "primaryName": "De Sabla",
            "facAddr": "De Sabla Powerhouse Road",
            "cityName": "Magalia",
            "stateName": "California",
            "postalCode": "95954",
            "latitude": "39.869265",
            "longitude": "-121.631819",
            "GEOID": "6007",
            "CountyState1": "Butte County (California)",
            "CountyState2": "Butte County (CA)"
        },
        {
            "pgmSysId": "233",
            "primaryName": "Deer Creek",
            "facAddr": "Chalk Bluff Road",
            "cityName": "Nevada City",
            "stateName": "California",
            "postalCode": "95959",
            "latitude": "39.29807",
            "longitude": "-120.8443",
            "GEOID": "6057",
            "CountyState1": "Nevada County (California)",
            "CountyState2": "Nevada County (CA)"
        },
        {
            "pgmSysId": "235",
            "primaryName": "Drum 1",
            "facAddr": "Drum Powerhouse Road",
            "cityName": "Alta",
            "stateName": "California",
            "postalCode": "95701",
            "latitude": "39.2568",
            "longitude": "-120.767",
            "GEOID": "6061",
            "CountyState1": "Placer County (California)",
            "CountyState2": "Placer County (CA)"
        },
        {
            "pgmSysId": "236",
            "primaryName": "Drum 2",
            "facAddr": "Drum Powerhouse Road",
            "cityName": "Alta",
            "stateName": "California",
            "postalCode": "95701",
            "latitude": "39.2568",
            "longitude": "-120.767",
            "GEOID": "6061",
            "CountyState1": "Placer County (California)",
            "CountyState2": "Placer County (CA)"
        },
        {
            "pgmSysId": "237",
            "primaryName": "Dutch Flat",
            "facAddr": "Dutch Flat Road",
            "cityName": "Alta",
            "stateName": "California",
            "postalCode": "95701",
            "latitude": "39.216985",
            "longitude": "-120.835587",
            "GEOID": "6061",
            "CountyState1": "Placer County (California)",
            "CountyState2": "Placer County (CA)"
        },
        {
            "pgmSysId": "238",
            "primaryName": "El Dorado",
            "facAddr": "100 Forebay Road",
            "cityName": "Pollock Pines",
            "stateName": "California",
            "postalCode": "95726",
            "latitude": "38.793574",
            "longitude": "-120.619152",
            "GEOID": "6017",
            "CountyState1": "El Dorado County (California)",
            "CountyState2": "El Dorado County (CA)"
        },
        {
            "pgmSysId": "239",
            "primaryName": "Electra",
            "facAddr": "Electric Road Off Highway 49",
            "cityName": "Jackson",
            "stateName": "California",
            "postalCode": "95642",
            "latitude": "38.330985",
            "longitude": "-120.669901",
            "GEOID": "6005",
            "CountyState1": "Amador County (California)",
            "CountyState2": "Amador County (CA)"
        },
        {
            "pgmSysId": "240",
            "primaryName": "Pg&E Haas Powerhouse",
            "facAddr": "Trimmer Springs Rd",
            "cityName": "Balch Camp",
            "stateName": "California",
            "postalCode": "93649",
            "latitude": "36.927424",
            "longitude": "-119.02025",
            "GEOID": "6019",
            "CountyState1": "Fresno County (California)",
            "CountyState2": "Fresno County (CA)"
        },
        {
            "pgmSysId": "241",
            "primaryName": "Halsey",
            "facAddr": "Dry Creek Road",
            "cityName": "Auburn",
            "stateName": "California",
            "postalCode": "95603",
            "latitude": "38.956985",
            "longitude": "-121.041932",
            "GEOID": "6061",
            "CountyState1": "Placer County (California)",
            "CountyState2": "Placer County (CA)"
        },
        {
            "pgmSysId": "242",
            "primaryName": "Hamilton Branch",
            "facAddr": "Lake Almanor",
            "cityName": "Penninsula Village",
            "stateName": "California",
            "postalCode": "96137",
            "latitude": "40.268712",
            "longitude": "-121.089479",
            "GEOID": "6063",
            "CountyState1": "Plumas County (California)",
            "CountyState2": "Plumas County (CA)"
        },
        {
            "pgmSysId": "243",
            "primaryName": "Hat Creek 1",
            "facAddr": "Baun Lake Road, Star Route 1",
            "cityName": "Burney",
            "stateName": "California",
            "postalCode": "96013",
            "latitude": "40.8914",
            "longitude": "-121.6558",
            "GEOID": "6089",
            "CountyState1": "Shasta County (California)",
            "CountyState2": "Shasta County (CA)"
        },
        {
            "pgmSysId": "244",
            "primaryName": "Hat Creek 2",
            "facAddr": "Hat Creek #2 Powerhouse Rd.",
            "cityName": "Burney",
            "stateName": "California",
            "postalCode": "96013",
            "latitude": "40.8914",
            "longitude": "-121.6558",
            "GEOID": "6089",
            "CountyState1": "Shasta County (California)",
            "CountyState2": "Shasta County (CA)"
        },
        {
            "pgmSysId": "246",
            "primaryName": "Pg&E Humboldt Bay Power Plant",
            "facAddr": "1000 King Salmon Avenue",
            "cityName": "Eureka",
            "stateName": "California",
            "postalCode": "95503-6859",
            "latitude": "40.7411",
            "longitude": "-124.2085",
            "GEOID": "6023",
            "CountyState1": "Humboldt County (California)",
            "CountyState2": "Humboldt County (CA)"
        },
        {
            "pgmSysId": "247",
            "primaryName": "Pg & E Co  Hunters Point Power",
            "facAddr": "1000 Evans Avenue",
            "cityName": "San Francisco",
            "stateName": "California",
            "postalCode": "94124-1714",
            "latitude": "37.73736",
            "longitude": "-122.37855",
            "GEOID": "6075",
            "CountyState1": "San Francisco County (California)",
            "CountyState2": "San Francisco County (CA)"
        },
        {
            "pgmSysId": "248",
            "primaryName": "Inskip",
            "facAddr": "Manton-Viola Road",
            "cityName": "Manton",
            "stateName": "California",
            "postalCode": "96059",
            "latitude": "40.4278",
            "longitude": "-121.8383",
            "GEOID": "6103",
            "CountyState1": "Tehama County (California)",
            "CountyState2": "Tehama County (CA)"
        },
        {
            "pgmSysId": "249",
            "primaryName": "James B Black",
            "facAddr": "Pitt 5 Road",
            "cityName": "Big Bend",
            "stateName": "California",
            "postalCode": "96011",
            "latitude": "40.992295",
            "longitude": "-121.975182",
            "GEOID": "6089",
            "CountyState1": "Shasta County (California)",
            "CountyState2": "Shasta County (CA)"
        },
        {
            "pgmSysId": "250",
            "primaryName": "Kerckhoff",
            "facAddr": "11",
            "cityName": "Auberry",
            "stateName": "California",
            "postalCode": "93602",
            "latitude": "37.092486",
            "longitude": "-119.552826",
            "GEOID": "6019",
            "CountyState1": "Fresno County (California)",
            "CountyState2": "Fresno County (CA)"
        },
        {
            "pgmSysId": "253",
            "primaryName": "Kilarc",
            "facAddr": "Fern Road",
            "cityName": "Whitmore",
            "stateName": "California",
            "postalCode": "96096",
            "latitude": "40.677827",
            "longitude": "-121.873253",
            "GEOID": "6089",
            "CountyState1": "Shasta County (California)",
            "CountyState2": "Shasta County (CA)"
        },
        {
            "pgmSysId": "254",
            "primaryName": "Kings River",
            "facAddr": "Trimmer Springs Road",
            "cityName": "Balch Camp",
            "stateName": "California",
            "postalCode": "93649",
            "latitude": "36.888166",
            "longitude": "-119.158777",
            "GEOID": "6019",
            "CountyState1": "Fresno County (California)",
            "CountyState2": "Fresno County (CA)"
        },
        {
            "pgmSysId": "255",
            "primaryName": "Lime Saddle",
            "facAddr": "Pentz Road, Rural Route1",
            "cityName": "Oroville",
            "stateName": "California",
            "postalCode": "95965",
            "latitude": "39.5283",
            "longitude": "-121.5435",
            "GEOID": "6007",
            "CountyState1": "Butte County (California)",
            "CountyState2": "Butte County (CA)"
        },
        {
            "pgmSysId": "258",
            "primaryName": "Merced Falls",
            "facAddr": "Merced Falls Road",
            "cityName": "Snelling",
            "stateName": "California",
            "postalCode": "95369",
            "latitude": "37.52301",
            "longitude": "-120.329905",
            "GEOID": "6047",
            "CountyState1": "Merced County (California)",
            "CountyState2": "Merced County (CA)"
        },
        {
            "pgmSysId": "259",
            "primaryName": "Dynegy Morro Bay Power Plant",
            "facAddr": "1290 Embarcadero Rd",
            "cityName": "Morro Bay",
            "stateName": "California",
            "postalCode": "93442",
            "latitude": "35.373906",
            "longitude": "-120.857214",
            "GEOID": "6079",
            "CountyState1": "San Luis Obispo County (California)",
            "CountyState2": "San Luis Obispo County (CA)"
        },
        {
            "pgmSysId": "260",
            "primaryName": "Moss Landing Power Plant",
            "facAddr": "Highway 1 And Dolan Road",
            "cityName": "Moss Landing",
            "stateName": "California",
            "postalCode": "95039",
            "latitude": "36.804722",
            "longitude": "-121.775556",
            "GEOID": "6053",
            "CountyState1": "Monterey County (California)",
            "CountyState2": "Monterey County (CA)"
        },
        {
            "pgmSysId": "261",
            "primaryName": "Murphys",
            "facAddr": "Utica Power House Rd Off Hwy 4",
            "cityName": "Murphys",
            "stateName": "California",
            "postalCode": "95247",
            "latitude": "38.147093",
            "longitude": "-120.446396",
            "GEOID": "6009",
            "CountyState1": "Calaveras County (California)",
            "CountyState2": "Calaveras County (CA)"
        },
        {
            "pgmSysId": "262",
            "primaryName": "Narrows",
            "facAddr": "Engilebright Dam Road",
            "cityName": "Grass Valley",
            "stateName": "California",
            "postalCode": "95945",
            "latitude": "39.2117",
            "longitude": "-121.0431",
            "GEOID": "6057",
            "CountyState1": "Nevada County (California)",
            "CountyState2": "Nevada County (CA)"
        },
        {
            "pgmSysId": "264",
            "primaryName": "Phoenix",
            "facAddr": "Shaws Flat Road",
            "cityName": "Sonora",
            "stateName": "California",
            "postalCode": "95370",
            "latitude": "38.032103",
            "longitude": "-120.326537",
            "GEOID": "6109",
            "CountyState1": "Tuolumne County (California)",
            "CountyState2": "Tuolumne County (CA)"
        },
        {
            "pgmSysId": "265",
            "primaryName": "Pit 1",
            "facAddr": "Pit 1 Road, Star Route 1",
            "cityName": "Burney",
            "stateName": "California",
            "postalCode": "96013",
            "latitude": "40.99084",
            "longitude": "-121.498243",
            "GEOID": "6089",
            "CountyState1": "Shasta County (California)",
            "CountyState2": "Shasta County (CA)"
        },
        {
            "pgmSysId": "266",
            "primaryName": "Pit 3",
            "facAddr": "Pitt 3 Road, Star Route 1",
            "cityName": "Burney",
            "stateName": "California",
            "postalCode": "96013",
            "latitude": "41.0218",
            "longitude": "-121.6747",
            "GEOID": "6089",
            "CountyState1": "Shasta County (California)",
            "CountyState2": "Shasta County (CA)"
        },
        {
            "pgmSysId": "267",
            "primaryName": "Pit 4",
            "facAddr": "Pit River Road",
            "cityName": "Big Bend",
            "stateName": "California",
            "postalCode": "96011",
            "latitude": "40.986361",
            "longitude": "-121.84944",
            "GEOID": "6089",
            "CountyState1": "Shasta County (California)",
            "CountyState2": "Shasta County (CA)"
        },
        {
            "pgmSysId": "268",
            "primaryName": "Pit 5 Powerhouse",
            "facAddr": "Pit 5 Off Big Bend Road",
            "cityName": "Montgomery Creek",
            "stateName": "California",
            "postalCode": "96065",
            "latitude": "40.986197",
            "longitude": "-121.977594",
            "GEOID": "6089",
            "CountyState1": "Shasta County (California)",
            "CountyState2": "Shasta County (CA)"
        },
        {
            "pgmSysId": "269",
            "primaryName": "Pit 6",
            "facAddr": "Big Bend Road",
            "cityName": "Montgomery Creek",
            "stateName": "California",
            "postalCode": "96065",
            "latitude": "40.922568",
            "longitude": "-121.992906",
            "GEOID": "6089",
            "CountyState1": "Shasta County (California)",
            "CountyState2": "Shasta County (CA)"
        },
        {
            "pgmSysId": "270",
            "primaryName": "Pit 7",
            "facAddr": "Fender%27s Ferry Road",
            "cityName": "Montgomery Creek",
            "stateName": "California",
            "postalCode": "96065",
            "latitude": "40.847462",
            "longitude": "-121.990798",
            "GEOID": "6089",
            "CountyState1": "Shasta County (California)",
            "CountyState2": "Shasta County (CA)"
        },
        {
            "pgmSysId": "271",
            "primaryName": "Pittsburg Power Plant",
            "facAddr": "696 West 10th Street",
            "cityName": "Pittsburg",
            "stateName": "California",
            "postalCode": "94565-1806",
            "latitude": "38.041194",
            "longitude": "-121.890389",
            "GEOID": "6013",
            "CountyState1": "Contra Costa County (California)",
            "CountyState2": "Contra Costa County (CA)"
        },
        {
            "pgmSysId": "272",
            "primaryName": "Pg&E Poe Dam",
            "facAddr": "Hwy 70 20 Mi Sw Of Storrie",
            "cityName": "Storrie",
            "stateName": "California",
            "postalCode": "95980",
            "latitude": "39.722892",
            "longitude": "-121.469814",
            "GEOID": "6007",
            "CountyState1": "Butte County (California)",
            "CountyState2": "Butte County (CA)"
        },
        {
            "pgmSysId": "274",
            "primaryName": "Potter Valley",
            "facAddr": "End Of Powerhouse Road",
            "cityName": "Potter Valley",
            "stateName": "California",
            "postalCode": "95469",
            "latitude": "39.361786",
            "longitude": "-123.127934",
            "GEOID": "6045",
            "CountyState1": "Mendocino County (California)",
            "CountyState2": "Mendocino County (CA)"
        },
        {
            "pgmSysId": "275",
            "primaryName": "Rock Creek",
            "facAddr": "Na",
            "cityName": "Storrie",
            "stateName": "California",
            "postalCode": "95980",
            "latitude": "39.90521",
            "longitude": "-121.345226",
            "GEOID": "6063",
            "CountyState1": "Plumas County (California)",
            "CountyState2": "Plumas County (CA)"
        },
        {
            "pgmSysId": "276",
            "primaryName": "San Joaquin 2",
            "facAddr": "County Road 222",
            "cityName": "North Fork",
            "stateName": "California",
            "postalCode": "93643",
            "latitude": "37.203233",
            "longitude": "-119.497508",
            "GEOID": "6039",
            "CountyState1": "Madera County (California)",
            "CountyState2": "Madera County (CA)"
        },
        {
            "pgmSysId": "277",
            "primaryName": "San Joaquin 3",
            "facAddr": "County Road 222",
            "cityName": "North Fork",
            "stateName": "California",
            "postalCode": "93643",
            "latitude": "37.253718",
            "longitude": "-119.519352",
            "GEOID": "6039",
            "CountyState1": "Madera County (California)",
            "CountyState2": "Madera County (CA)"
        },
        {
            "pgmSysId": "279",
            "primaryName": "Salt Springs",
            "facAddr": "Tiger Creek-Salt Springs Road",
            "cityName": "Pioneer",
            "stateName": "California",
            "postalCode": "95666",
            "latitude": "38.497914",
            "longitude": "-120.21811",
            "GEOID": "6005",
            "CountyState1": "Amador County (California)",
            "CountyState2": "Amador County (CA)"
        },
        {
            "pgmSysId": "280",
            "primaryName": "South",
            "facAddr": "South Powerhouse Road",
            "cityName": "Manton",
            "stateName": "California",
            "postalCode": "96059",
            "latitude": "40.42009",
            "longitude": "-121.87162",
            "GEOID": "6103",
            "CountyState1": "Tehama County (California)",
            "CountyState2": "Tehama County (CA)"
        },
        {
            "pgmSysId": "281",
            "primaryName": "Spaulding 1",
            "facAddr": "Na",
            "cityName": "Emigrant Gap",
            "stateName": "California",
            "postalCode": "95715",
            "latitude": "39.324613",
            "longitude": "-120.644807",
            "GEOID": "6057",
            "CountyState1": "Nevada County (California)",
            "CountyState2": "Nevada County (CA)"
        },
        {
            "pgmSysId": "282",
            "primaryName": "Spaulding 2",
            "facAddr": "Na",
            "cityName": "Emigrant Gap",
            "stateName": "California",
            "postalCode": "95715",
            "latitude": "39.324592",
            "longitude": "-120.645375",
            "GEOID": "6057",
            "CountyState1": "Nevada County (California)",
            "CountyState2": "Nevada County (CA)"
        },
        {
            "pgmSysId": "283",
            "primaryName": "Spaulding 3",
            "facAddr": "Na",
            "cityName": "Emigrant Gap",
            "stateName": "California",
            "postalCode": "95715",
            "latitude": "39.296845",
            "longitude": "-120.6727122",
            "GEOID": "6061",
            "CountyState1": "Placer County (California)",
            "CountyState2": "Placer County (CA)"
        },
        {
            "pgmSysId": "284",
            "primaryName": "Spring Gap",
            "facAddr": "Frazer Flat Road",
            "cityName": "Long Barn",
            "stateName": "California",
            "postalCode": "95335",
            "latitude": "38.18653",
            "longitude": "-120.11168",
            "GEOID": "6109",
            "CountyState1": "Tuolumne County (California)",
            "CountyState2": "Tuolumne County (CA)"
        },
        {
            "pgmSysId": "285",
            "primaryName": "Stanislaus",
            "facAddr": "Camp Nine Road",
            "cityName": "Vallecito",
            "stateName": "California",
            "postalCode": "95251",
            "latitude": "38.139048",
            "longitude": "-120.370325",
            "GEOID": "6109",
            "CountyState1": "Tuolumne County (California)",
            "CountyState2": "Tuolumne County (CA)"
        },
        {
            "pgmSysId": "286",
            "primaryName": "Geysers Unit 5-20",
            "facAddr": "10350 Socrates Mine Road",
            "cityName": "Middletown",
            "stateName": "California",
            "postalCode": "95461",
            "latitude": "38.78487",
            "longitude": "-122.71328",
            "GEOID": "6033",
            "CountyState1": "Lake County (California)",
            "CountyState2": "Lake County (CA)"
        },
        {
            "pgmSysId": "287",
            "primaryName": "Pg&E Tiger Creek Hydro Plant",
            "facAddr": "Tiger Creek Road 5 Miles South Of Hwy 88",
            "cityName": "Pioneer",
            "stateName": "California",
            "postalCode": "95666",
            "latitude": "38.449291",
            "longitude": "-120.492645",
            "GEOID": "6005",
            "CountyState1": "Amador County (California)",
            "CountyState2": "Amador County (CA)"
        },
        {
            "pgmSysId": "289",
            "primaryName": "Tule River",
            "facAddr": "Highway 190",
            "cityName": "Springville",
            "stateName": "California",
            "postalCode": "93265",
            "latitude": "36.163076",
            "longitude": "-118.707104",
            "GEOID": "6107",
            "CountyState1": "Tulare County (California)",
            "CountyState2": "Tulare County (CA)"
        },
        {
            "pgmSysId": "290",
            "primaryName": "Pg&E - Volta 1 Powerhouse",
            "facAddr": "Volta Powerhouse Road",
            "cityName": "Manton",
            "stateName": "California",
            "postalCode": "96059",
            "latitude": "40.4552",
            "longitude": "-121.86565",
            "GEOID": "6089",
            "CountyState1": "Shasta County (California)",
            "CountyState2": "Shasta County (CA)"
        },
        {
            "pgmSysId": "291",
            "primaryName": "West Point",
            "facAddr": "Red Corral Road",
            "cityName": "Pioneer",
            "stateName": "California",
            "postalCode": "95666",
            "latitude": "38.420898",
            "longitude": "-120.549572",
            "GEOID": "6005",
            "CountyState1": "Amador County (California)",
            "CountyState2": "Amador County (CA)"
        },
        {
            "pgmSysId": "292",
            "primaryName": "Wise",
            "facAddr": "10850 Wise Road",
            "cityName": "Auburn",
            "stateName": "California",
            "postalCode": "95603-9718",
            "latitude": "38.89061",
            "longitude": "-121.09703",
            "GEOID": "6061",
            "CountyState1": "Placer County (California)",
            "CountyState2": "Placer County (CA)"
        },
        {
            "pgmSysId": "293",
            "primaryName": "A G Wishon",
            "facAddr": "County Road 222",
            "cityName": "North Fork",
            "stateName": "California",
            "postalCode": "93643",
            "latitude": "37.15105",
            "longitude": "-119.504724",
            "GEOID": "6039",
            "CountyState1": "Madera County (California)",
            "CountyState2": "Madera County (CA)"
        },
        {
            "pgmSysId": "294",
            "primaryName": "Copco 1",
            "facAddr": "Copco Rd, 20 Mi East Of I5",
            "cityName": "Hornbrook",
            "stateName": "California",
            "postalCode": "96044",
            "latitude": "41.978914",
            "longitude": "-122.335317",
            "GEOID": "6093",
            "CountyState1": "Siskiyou County (California)",
            "CountyState2": "Siskiyou County (CA)"
        },
        {
            "pgmSysId": "295",
            "primaryName": "Copco 2",
            "facAddr": "19305 Daggett Road",
            "cityName": "Hornbrook",
            "stateName": "California",
            "postalCode": "96044-9719",
            "latitude": "41.974878",
            "longitude": "-122.358346",
            "GEOID": "6093",
            "CountyState1": "Siskiyou County (California)",
            "CountyState2": "Siskiyou County (CA)"
        },
        {
            "pgmSysId": "296",
            "primaryName": "Fall Creek",
            "facAddr": "Copco Rd, 18 Mi East Of I5",
            "cityName": "Hornbrook",
            "stateName": "California",
            "postalCode": "96044",
            "latitude": "41.985605",
            "longitude": "-122.360455",
            "GEOID": "6093",
            "CountyState1": "Siskiyou County (California)",
            "CountyState2": "Siskiyou County (CA)"
        },
        {
            "pgmSysId": "297",
            "primaryName": "Iron Gate",
            "facAddr": "Copco Rd, 9 Mi East Of I5",
            "cityName": "Hornbrook",
            "stateName": "California",
            "postalCode": "96044",
            "latitude": "41.932981",
            "longitude": "-122.43678",
            "GEOID": "6093",
            "CountyState1": "Siskiyou County (California)",
            "CountyState2": "Siskiyou County (CA)"
        },
        {
            "pgmSysId": "300",
            "primaryName": "Cabrillo Power Ii Llc Division",
            "facAddr": "3200 Harbor Dr Division Gt",
            "cityName": "San Diego",
            "stateName": "California",
            "postalCode": "92113",
            "latitude": "32.72752",
            "longitude": "-117.19236",
            "GEOID": "6073",
            "CountyState1": "San Diego County (California)",
            "CountyState2": "San Diego County (CA)"
        },
        {
            "pgmSysId": "301",
            "primaryName": "Calpeak Power - El Cajon Llc",
            "facAddr": "800 West Main Street",
            "cityName": "El Cajon",
            "stateName": "California",
            "postalCode": "92020",
            "latitude": "32.7964",
            "longitude": "-116.9721",
            "GEOID": "6073",
            "CountyState1": "San Diego County (California)",
            "CountyState2": "San Diego County (CA)"
        },
        {
            "pgmSysId": "302",
            "primaryName": "Cabrillo Power I Llc Encina Po Wer Plant",
            "facAddr": "4600 Carlsbad Boulevard",
            "cityName": "Carlsbad",
            "stateName": "California",
            "postalCode": "92008-4301",
            "latitude": "33.139895",
            "longitude": "-117.339645",
            "GEOID": "6073",
            "CountyState1": "San Diego County (California)",
            "CountyState2": "San Diego County (CA)"
        },
        {
            "pgmSysId": "303",
            "primaryName": "Cabrillo Power Ii, Llc (KEARNY 1) Gt",
            "facAddr": "5460 Overland Ave",
            "cityName": "San Diego",
            "stateName": "California",
            "postalCode": "92123",
            "latitude": "32.833334",
            "longitude": "-117.131",
            "GEOID": "6073",
            "CountyState1": "San Diego County (California)",
            "CountyState2": "San Diego County (CA)"
        },
        {
            "pgmSysId": "305",
            "primaryName": "San Diego Gas & Electric Miramar",
            "facAddr": "6875 Consolidated Way",
            "cityName": "San Diego",
            "stateName": "California",
            "postalCode": "92121",
            "latitude": "32.876417",
            "longitude": "-117.168867",
            "GEOID": "6073",
            "CountyState1": "San Diego County (California)",
            "CountyState2": "San Diego County (CA)"
        },
        {
            "pgmSysId": "306",
            "primaryName": "Naval Station",
            "facAddr": "Bldg. 3427 Surface Navy Blvd.",
            "cityName": "San Diego",
            "stateName": "California",
            "postalCode": "92136",
            "latitude": "32.686217",
            "longitude": "-117.127502",
            "GEOID": "6073",
            "CountyState1": "San Diego County (California)",
            "CountyState2": "San Diego County (CA)"
        },
        {
            "pgmSysId": "307",
            "primaryName": "Us Navy Naval Air Station North Island",
            "facAddr": "Mccain Boulevard",
            "cityName": "San Diego",
            "stateName": "California",
            "postalCode": "921357040",
            "latitude": "32.698333",
            "longitude": "-117.209444",
            "GEOID": "6073",
            "CountyState1": "San Diego County (California)",
            "CountyState2": "San Diego County (CA)"
        },
        {
            "pgmSysId": "309",
            "primaryName": "San Diego Gas And Electric- Silvergate",
            "facAddr": "1348 Sampson Street",
            "cityName": "San Diego",
            "stateName": "California",
            "postalCode": "92113-3645",
            "latitude": "32.69456",
            "longitude": "-117.142657",
            "GEOID": "6073",
            "CountyState1": "San Diego County (California)",
            "CountyState2": "San Diego County (CA)"
        },
        {
            "pgmSysId": "314",
            "primaryName": "Drop 5",
            "facAddr": "Calexico New Port Of Entry - Ca Hwy 7 & Ca Hwy 98",
            "cityName": "Brawley",
            "stateName": "California",
            "postalCode": "92227",
            "latitude": "32.673097",
            "longitude": "-115.392026",
            "GEOID": "6025",
            "CountyState1": "Imperial County (California)",
            "CountyState2": "Imperial County (CA)"
        },
        {
            "pgmSysId": "315",
            "primaryName": "Aes Alamitos Power Plant",
            "facAddr": "690 N Studebaker Rd",
            "cityName": "Long Beach",
            "stateName": "California",
            "postalCode": "90803-2221",
            "latitude": "33.768889",
            "longitude": "-118.101111",
            "GEOID": "6037",
            "CountyState1": "Los Angeles County (California)",
            "CountyState2": "Los Angeles County (CA)"
        },
        {
            "pgmSysId": "316",
            "primaryName": "Sepulveda Canyon",
            "facAddr": "1751 N. Sepulveda Blvd",
            "cityName": "Los Angeles",
            "stateName": "California",
            "postalCode": "90049",
            "latitude": "34.0997",
            "longitude": "-118.47862",
            "GEOID": "6037",
            "CountyState1": "Los Angeles County (California)",
            "CountyState2": "Los Angeles County (CA)"
        },
        {
            "pgmSysId": "317",
            "primaryName": "Southern California Big Creek 1 Powerhouse",
            "facAddr": "54205 Mountain Poplar Dr",
            "cityName": "Big Creek",
            "stateName": "California",
            "postalCode": "93605",
            "latitude": "37.20232",
            "longitude": "-119.24829",
            "GEOID": "6019",
            "CountyState1": "Fresno County (California)",
            "CountyState2": "Fresno County (CA)"
        },
        {
            "pgmSysId": "318",
            "primaryName": "Big Creek 2",
            "facAddr": "53615 Upper Chawanakee Road",
            "cityName": "Auberry",
            "stateName": "California",
            "postalCode": "93602",
            "latitude": "37.2",
            "longitude": "-119.3069",
            "GEOID": "6019",
            "CountyState1": "Fresno County (California)",
            "CountyState2": "Fresno County (CA)"
        },
        {
            "pgmSysId": "319",
            "primaryName": "Big Creek 3",
            "facAddr": "47369 Lower Redinger Road",
            "cityName": "Auberry",
            "stateName": "California",
            "postalCode": "93602",
            "latitude": "37.13237",
            "longitude": "-119.429017",
            "GEOID": "6019",
            "CountyState1": "Fresno County (California)",
            "CountyState2": "Fresno County (CA)"
        },
        {
            "pgmSysId": "320",
            "primaryName": "Big Creek 4",
            "facAddr": "Sierra National Forest",
            "cityName": "North Fork",
            "stateName": "California",
            "postalCode": "93643",
            "latitude": "37.139",
            "longitude": "-119.4898",
            "GEOID": "6039",
            "CountyState1": "Madera County (California)",
            "CountyState2": "Madera County (CA)"
        },
        {
            "pgmSysId": "321",
            "primaryName": "Big Creek 8 Powerhouse",
            "facAddr": "51374 Mammoth Pool Rd.",
            "cityName": "Auberry",
            "stateName": "California",
            "postalCode": "93602",
            "latitude": "37.2096",
            "longitude": "-119.3289",
            "GEOID": "6019",
            "CountyState1": "Fresno County (California)",
            "CountyState2": "Fresno County (CA)"
        },
        {
            "pgmSysId": "322",
            "primaryName": "Big Creek 2a",
            "facAddr": "Sierra National Forest",
            "cityName": "Auberry",
            "stateName": "California",
            "postalCode": "93602",
            "latitude": "37.2",
            "longitude": "-119.3069",
            "GEOID": "6019",
            "CountyState1": "Fresno County (California)",
            "CountyState2": "Fresno County (CA)"
        },
        {
            "pgmSysId": "323",
            "primaryName": "Bishop Creek 2",
            "facAddr": "Hwy 168 Inyo National Forest",
            "cityName": "Bishop",
            "stateName": "California",
            "postalCode": "93514",
            "latitude": "37.273581",
            "longitude": "-118.573339",
            "GEOID": "6027",
            "CountyState1": "Inyo County (California)",
            "CountyState2": "Inyo County (CA)"
        },
        {
            "pgmSysId": "324",
            "primaryName": "Bishop Creek 3",
            "facAddr": "Hwy168 Inyo National Forest",
            "cityName": "Bishop",
            "stateName": "California",
            "postalCode": "93514",
            "latitude": "37.301962",
            "longitude": "-118.531957",
            "GEOID": "6027",
            "CountyState1": "Inyo County (California)",
            "CountyState2": "Inyo County (CA)"
        },
        {
            "pgmSysId": "325",
            "primaryName": "Bishop Creek 4",
            "facAddr": "Route 1 Plant 4",
            "cityName": "Bishop",
            "stateName": "California",
            "postalCode": "93514",
            "latitude": "37.323035",
            "longitude": "-118.501714",
            "GEOID": "6027",
            "CountyState1": "Inyo County (California)",
            "CountyState2": "Inyo County (CA)"
        },
        {
            "pgmSysId": "326",
            "primaryName": "Bishop Creek 5",
            "facAddr": "Inyo National Forest",
            "cityName": "Bishop",
            "stateName": "California",
            "postalCode": "93514",
            "latitude": "37.3344",
            "longitude": "-118.4797",
            "GEOID": "6027",
            "CountyState1": "Inyo County (California)",
            "CountyState2": "Inyo County (CA)"
        },
        {
            "pgmSysId": "327",
            "primaryName": "Bishop Creek 6",
            "facAddr": "Plant 6 Rd Inyo Nat%27l Forest",
            "cityName": "Bishop",
            "stateName": "California",
            "postalCode": "93514",
            "latitude": "37.3499",
            "longitude": "-118.4628",
            "GEOID": "6027",
            "CountyState1": "Inyo County (California)",
            "CountyState2": "Inyo County (CA)"
        },
        {
            "pgmSysId": "328",
            "primaryName": "Borel",
            "facAddr": "Hwy178 Sequoia Nat%27l Forest",
            "cityName": "Lake Isabella",
            "stateName": "California",
            "postalCode": "93240",
            "latitude": "35.588069",
            "longitude": "-118.524804",
            "GEOID": "6029",
            "CountyState1": "Kern County (California)",
            "CountyState2": "Kern County (CA)"
        },
        {
            "pgmSysId": "329",
            "primaryName": "Reliant Energy Coolwater Electric Generating Station",
            "facAddr": "37000 Santa Fe Road",
            "cityName": "Daggett",
            "stateName": "California",
            "postalCode": "92327",
            "latitude": "34.8622",
            "longitude": "-116.854",
            "GEOID": "6071",
            "CountyState1": "San Bernardino County (California)",
            "CountyState2": "San Bernardino County (CA)"
        },
        {
            "pgmSysId": "330",
            "primaryName": "El Segundo Generating Station",
            "facAddr": "301 Vista Del Mar",
            "cityName": "El Segundo",
            "stateName": "California",
            "postalCode": "90245",
            "latitude": "33.91649",
            "longitude": "-118.42763",
            "GEOID": "6037",
            "CountyState1": "Los Angeles County (California)",
            "CountyState2": "Los Angeles County (CA)"
        },
        {
            "pgmSysId": "331",
            "primaryName": "Etiwanda Generating Station",
            "facAddr": "8996 Etiwanda Ave",
            "cityName": "Rancho Cucamonga",
            "stateName": "California",
            "postalCode": "91739",
            "latitude": "34.08984",
            "longitude": "-117.52383",
            "GEOID": "6071",
            "CountyState1": "San Bernardino County (California)",
            "CountyState2": "San Bernardino County (CA)"
        },
        {
            "pgmSysId": "332",
            "primaryName": "Fontana Powerhouse",
            "facAddr": "3165 N Riverside",
            "cityName": "Rialto",
            "stateName": "California",
            "postalCode": "92377",
            "latitude": "34.155331",
            "longitude": "-117.398103",
            "GEOID": "6071",
            "CountyState1": "San Bernardino County (California)",
            "CountyState2": "San Bernardino County (CA)"
        },
        {
            "pgmSysId": "335",
            "primaryName": "Aes Huntington Beach Llc",
            "facAddr": "21730 Newland Street",
            "cityName": "Huntington Beach",
            "stateName": "California",
            "postalCode": "92646-7612",
            "latitude": "33.647311",
            "longitude": "-117.979594",
            "GEOID": "6059",
            "CountyState1": "Orange County (California)",
            "CountyState2": "Orange County (CA)"
        },
        {
            "pgmSysId": "336",
            "primaryName": "Kaweah 2",
            "facAddr": "Kaweah River Drive",
            "cityName": "Three Rivers",
            "stateName": "California",
            "postalCode": "93271",
            "latitude": "36.461326",
            "longitude": "-118.87988",
            "GEOID": "6107",
            "CountyState1": "Tulare County (California)",
            "CountyState2": "Tulare County (CA)"
        },
        {
            "pgmSysId": "337",
            "primaryName": "Kaweah No 1",
            "facAddr": "44511 Sierra Dr",
            "cityName": "Three Rivers",
            "stateName": "California",
            "postalCode": "93271",
            "latitude": "36.464432",
            "longitude": "-118.862554",
            "GEOID": "6107",
            "CountyState1": "Tulare County (California)",
            "CountyState2": "Tulare County (CA)"
        },
        {
            "pgmSysId": "338",
            "primaryName": "Kaweah 3",
            "facAddr": "Kaweah River Drive",
            "cityName": "Three Rivers",
            "stateName": "California",
            "postalCode": "93271",
            "latitude": "36.486059",
            "longitude": "-118.835645",
            "GEOID": "6107",
            "CountyState1": "Tulare County (California)",
            "CountyState2": "Tulare County (CA)"
        },
        {
            "pgmSysId": "339",
            "primaryName": "Kern River 3",
            "facAddr": "15115 Sierra Way",
            "cityName": "Kernville",
            "stateName": "California",
            "postalCode": "93238",
            "latitude": "35.774859",
            "longitude": "-118.43315",
            "GEOID": "6029",
            "CountyState1": "Kern County (California)",
            "CountyState2": "Kern County (CA)"
        },
        {
            "pgmSysId": "340",
            "primaryName": "Kern River 1",
            "facAddr": "Hwy178 Sequoia Nat%27l Forest",
            "cityName": "Bakersfield",
            "stateName": "California",
            "postalCode": "93301",
            "latitude": "35.460303",
            "longitude": "-118.77959",
            "GEOID": "6029",
            "CountyState1": "Kern County (California)",
            "CountyState2": "Kern County (CA)"
        },
        {
            "pgmSysId": "341",
            "primaryName": "Long Beach Generating Station",
            "facAddr": "2665 W Seaside Blvd",
            "cityName": "Long Beach",
            "stateName": "California",
            "postalCode": "90802",
            "latitude": "33.762074",
            "longitude": "-118.226811",
            "GEOID": "6037",
            "CountyState1": "Los Angeles County (California)",
            "CountyState2": "Los Angeles County (CA)"
        },
        {
            "pgmSysId": "342",
            "primaryName": "Lundy",
            "facAddr": "9 Miles N. Of Lee Vining",
            "cityName": "Lee Vining",
            "stateName": "California",
            "postalCode": "93541",
            "latitude": "38.042729",
            "longitude": "-119.172015",
            "GEOID": "6051",
            "CountyState1": "Mono County (California)",
            "CountyState2": "Mono County (CA)"
        },
        {
            "pgmSysId": "344",
            "primaryName": "Mammoth Pool",
            "facAddr": "Sierra National Forest",
            "cityName": "North  Fork",
            "stateName": "California",
            "postalCode": "93643",
            "latitude": "37.220302",
            "longitude": "-119.337983",
            "GEOID": "6039",
            "CountyState1": "Madera County (California)",
            "CountyState2": "Madera County (CA)"
        },
        {
            "pgmSysId": "345",
            "primaryName": "Mandalay Generating Station",
            "facAddr": "393 Harbor Blvd",
            "cityName": "Oxnard",
            "stateName": "California",
            "postalCode": "93035",
            "latitude": "34.207222",
            "longitude": "-119.251111",
            "GEOID": "6111",
            "CountyState1": "Ventura County (California)",
            "CountyState2": "Ventura County (CA)"
        },
        {
            "pgmSysId": "350",
            "primaryName": "Ormond Beach Generating Station",
            "facAddr": "6635 S Edison Dr Power Plant",
            "cityName": "Oxnard",
            "stateName": "California",
            "postalCode": "93033-8706",
            "latitude": "34.13248",
            "longitude": "-119.16674",
            "GEOID": "6111",
            "CountyState1": "Ventura County (California)",
            "CountyState2": "Ventura County (CA)"
        },
        {
            "pgmSysId": "353",
            "primaryName": "Poole",
            "facAddr": "Inyo National Forest",
            "cityName": "Lee Vining",
            "stateName": "California",
            "postalCode": "93541",
            "latitude": "37.944237",
            "longitude": "-119.2161",
            "GEOID": "6051",
            "CountyState1": "Mono County (California)",
            "CountyState2": "Mono County (CA)"
        },
        {
            "pgmSysId": "354",
            "primaryName": "Portal",
            "facAddr": "Hwy168 Sierra Nat%27l Forest",
            "cityName": "Lakeshore",
            "stateName": "California",
            "postalCode": "93634",
            "latitude": "37.257045",
            "longitude": "-119.158936",
            "GEOID": "6019",
            "CountyState1": "Fresno County (California)",
            "CountyState2": "Fresno County (CA)"
        },
        {
            "pgmSysId": "356",
            "primaryName": "Aes Redondo Beach, Llc",
            "facAddr": "1100 Harbor Dr",
            "cityName": "Redondo Beach",
            "stateName": "California",
            "postalCode": "90277-2017",
            "latitude": "33.850278",
            "longitude": "-118.395",
            "GEOID": "6037",
            "CountyState1": "Los Angeles County (California)",
            "CountyState2": "Los Angeles County (CA)"
        },
        {
            "pgmSysId": "357",
            "primaryName": "Rush Creek",
            "facAddr": "June Lake Loop Sierra Ntnl For",
            "cityName": "June Lake",
            "stateName": "California",
            "postalCode": "93529",
            "latitude": "37.766954",
            "longitude": "-119.123284",
            "GEOID": "6051",
            "CountyState1": "Mono County (California)",
            "CountyState2": "Mono County (CA)"
        },
        {
            "pgmSysId": "358",
            "primaryName": "Mountainview Generating Station",
            "facAddr": "2492 W San Bernardino Ave",
            "cityName": "Redlands",
            "stateName": "California",
            "postalCode": "92374",
            "latitude": "34.07756",
            "longitude": "-117.24331",
            "GEOID": "6071",
            "CountyState1": "San Bernardino County (California)",
            "CountyState2": "San Bernardino County (CA)"
        },
        {
            "pgmSysId": "360",
            "primaryName": "San Onofre Nuclear Generating Station Unit 2",
            "facAddr": "5000 Old Pacific Hwy",
            "cityName": "San Clemente",
            "stateName": "California",
            "postalCode": "92672",
            "latitude": "33.369177",
            "longitude": "-117.555487",
            "GEOID": "6073",
            "CountyState1": "San Diego County (California)",
            "CountyState2": "San Diego County (CA)"
        },
        {
            "pgmSysId": "361",
            "primaryName": "Santa Ana 1",
            "facAddr": "San Barnardino National Forest",
            "cityName": "Highland",
            "stateName": "California",
            "postalCode": "92346",
            "latitude": "34.14522",
            "longitude": "-117.058481",
            "GEOID": "6071",
            "CountyState1": "San Bernardino County (California)",
            "CountyState2": "San Bernardino County (CA)"
        },
        {
            "pgmSysId": "363",
            "primaryName": "Santa Ana 3",
            "facAddr": "San Bernardino National Forest",
            "cityName": "Highland",
            "stateName": "California",
            "postalCode": "92346",
            "latitude": "34.107245",
            "longitude": "-117.099091",
            "GEOID": "6071",
            "CountyState1": "San Bernardino County (California)",
            "CountyState2": "San Bernardino County (CA)"
        },
        {
            "pgmSysId": "365",
            "primaryName": "Tule River",
            "facAddr": "Hwy190 Sequoia National Forest",
            "cityName": "Springville",
            "stateName": "California",
            "postalCode": "93265",
            "latitude": "36.13568",
            "longitude": "-118.788868",
            "GEOID": "6107",
            "CountyState1": "Tulare County (California)",
            "CountyState2": "Tulare County (CA)"
        },
        {
            "pgmSysId": "375",
            "primaryName": "Bwp Magnolia Power Plant",
            "facAddr": "110 W Magnolia Blvd",
            "cityName": "Burbank",
            "stateName": "California",
            "postalCode": "91502",
            "latitude": "34.17978",
            "longitude": "-118.315049",
            "GEOID": "6037",
            "CountyState1": "Los Angeles County (California)",
            "CountyState2": "Los Angeles County (CA)"
        },
        {
            "pgmSysId": "376",
            "primaryName": "Pardee",
            "facAddr": "Pardee Dam Road At Mokelumne R",
            "cityName": "Mountain Ranch",
            "stateName": "California",
            "postalCode": "95246",
            "latitude": "38.2569",
            "longitude": "-120.8507",
            "GEOID": "6005",
            "CountyState1": "Amador County (California)",
            "CountyState2": "Amador County (CA)"
        },
        {
            "pgmSysId": "377",
            "primaryName": "Glendale City,Public Service-Grayson Pwr",
            "facAddr": "800 Air Way",
            "cityName": "Glendale",
            "stateName": "California",
            "postalCode": "91201-",
            "latitude": "34.1556",
            "longitude": "-118.2782",
            "GEOID": "6037",
            "CountyState1": "Los Angeles County (California)",
            "CountyState2": "Los Angeles County (CA)"
        },
        {
            "pgmSysId": "380",
            "primaryName": "Dion R Holm",
            "facAddr": "Hwy 120",
            "cityName": "Groveland",
            "stateName": "California",
            "postalCode": "95321",
            "latitude": "37.896649",
            "longitude": "-119.9675",
            "GEOID": "6109",
            "CountyState1": "Tuolumne County (California)",
            "CountyState2": "Tuolumne County (CA)"
        },
        {
            "pgmSysId": "381",
            "primaryName": "Moccasin Low Head Hydro Project",
            "facAddr": "Hwy 120-49 Junction",
            "cityName": "Moccasin",
            "stateName": "California",
            "postalCode": "95347",
            "latitude": "37.8106",
            "longitude": "-120.2989",
            "GEOID": "6109",
            "CountyState1": "Tuolumne County (California)",
            "CountyState2": "Tuolumne County (CA)"
        },
        {
            "pgmSysId": "382",
            "primaryName": "R C Kirkwood",
            "facAddr": "Hwy 120",
            "cityName": "Groveland",
            "stateName": "California",
            "postalCode": "95321",
            "latitude": "37.877667",
            "longitude": "-119.953233",
            "GEOID": "6109",
            "CountyState1": "Tuolumne County (California)",
            "CountyState2": "Tuolumne County (CA)"
        },
        {
            "pgmSysId": "383",
            "primaryName": "Brawley",
            "facAddr": "475 Dogwood Rd.",
            "cityName": "Brawley",
            "stateName": "California",
            "postalCode": "92227",
            "latitude": "32.968889",
            "longitude": "-115.534444",
            "GEOID": "6025",
            "CountyState1": "Imperial County (California)",
            "CountyState2": "Imperial County (CA)"
        },
        {
            "pgmSysId": "385",
            "primaryName": "Drop 2",
            "facAddr": "Interstate 8 - Brock Research",
            "cityName": "Brawley",
            "stateName": "California",
            "postalCode": "92227",
            "latitude": "32.705435",
            "longitude": "-115.030975",
            "GEOID": "6025",
            "CountyState1": "Imperial County (California)",
            "CountyState2": "Imperial County (CA)"
        },
        {
            "pgmSysId": "386",
            "primaryName": "Drop 3",
            "facAddr": "Interstate 8 - Ltva",
            "cityName": "Brawley",
            "stateName": "California",
            "postalCode": "92227",
            "latitude": "32.705428",
            "longitude": "-115.126103",
            "GEOID": "6025",
            "CountyState1": "Imperial County (California)",
            "CountyState2": "Imperial County (CA)"
        },
        {
            "pgmSysId": "387",
            "primaryName": "Drop 4",
            "facAddr": "3675 E. Highway 98",
            "cityName": "Holtville",
            "stateName": "California",
            "postalCode": "92250",
            "latitude": "32.705341",
            "longitude": "-115.219067",
            "GEOID": "6025",
            "CountyState1": "Imperial County (California)",
            "CountyState2": "Imperial County (CA)"
        },
        {
            "pgmSysId": "388",
            "primaryName": "Pilot Knob",
            "facAddr": "350 Algodones Rd.",
            "cityName": "Winterhaven",
            "stateName": "California",
            "postalCode": "92283",
            "latitude": "32.72174",
            "longitude": "-114.725242",
            "GEOID": "6025",
            "CountyState1": "Imperial County (California)",
            "CountyState2": "Imperial County (CA)"
        },
        {
            "pgmSysId": "389",
            "primaryName": "El Centro Generating Station",
            "facAddr": "485 East Villa Road",
            "cityName": "El Centro",
            "stateName": "California",
            "postalCode": "92243",
            "latitude": "32.8022",
            "longitude": "-115.54",
            "GEOID": "6025",
            "CountyState1": "Imperial County (California)",
            "CountyState2": "Imperial County (CA)"
        },
        {
            "pgmSysId": "391",
            "primaryName": "Big Pine",
            "facAddr": "400 Cone Rd.",
            "cityName": "Big Pine",
            "stateName": "California",
            "postalCode": "93513",
            "latitude": "37.14282",
            "longitude": "-118.32315",
            "GEOID": "6027",
            "CountyState1": "Inyo County (California)",
            "CountyState2": "Inyo County (CA)"
        },
        {
            "pgmSysId": "392",
            "primaryName": "Castaic Power Plant",
            "facAddr": "37700 Templin Hwy",
            "cityName": "Castaic",
            "stateName": "California",
            "postalCode": "91384",
            "latitude": "34.60233",
            "longitude": "-118.67051",
            "GEOID": "6037",
            "CountyState1": "Los Angeles County (California)",
            "CountyState2": "Los Angeles County (CA)"
        },
        {
            "pgmSysId": "393",
            "primaryName": "La Department Water & Power",
            "facAddr": "Pleasant Valley Rd",
            "cityName": "Bishop",
            "stateName": "California",
            "postalCode": "93514",
            "latitude": "37.437921",
            "longitude": "-118.556988",
            "GEOID": "6027",
            "CountyState1": "Inyo County (California)",
            "CountyState2": "Inyo County (CA)"
        },
        {
            "pgmSysId": "394",
            "primaryName": "Cottonwood",
            "facAddr": "651 Power House Rd.",
            "cityName": "Lone Pine",
            "stateName": "California",
            "postalCode": "93545",
            "latitude": "36.443421",
            "longitude": "-118.04389",
            "GEOID": "6027",
            "CountyState1": "Inyo County (California)",
            "CountyState2": "Inyo County (CA)"
        },
        {
            "pgmSysId": "396",
            "primaryName": "Foothill",
            "facAddr": "14351 San Fernando Rd.",
            "cityName": "San Fernando",
            "stateName": "California",
            "postalCode": "91340",
            "latitude": "34.319549",
            "longitude": "-118.495489",
            "GEOID": "6037",
            "CountyState1": "Los Angeles County (California)",
            "CountyState2": "Los Angeles County (CA)"
        },
        {
            "pgmSysId": "397",
            "primaryName": "Franklin",
            "facAddr": "1298 N. Beverley Dr.",
            "cityName": "Beverly Hills",
            "stateName": "California",
            "postalCode": "90210-2337",
            "latitude": "34.09482",
            "longitude": "-118.41399",
            "GEOID": "6037",
            "CountyState1": "Los Angeles County (California)",
            "CountyState2": "Los Angeles County (CA)"
        },
        {
            "pgmSysId": "398",
            "primaryName": "Haiwee",
            "facAddr": "3401 S. Haiwee Rd.",
            "cityName": "Olancha",
            "stateName": "California",
            "postalCode": "93549",
            "latitude": "36.109722",
            "longitude": "-117.956667",
            "GEOID": "6027",
            "CountyState1": "Inyo County (California)",
            "CountyState2": "Inyo County (CA)"
        },
        {
            "pgmSysId": "399",
            "primaryName": "Harbor Generating Station",
            "facAddr": "161 North Island Avenue",
            "cityName": "Wilmington",
            "stateName": "California",
            "postalCode": "90744-6303",
            "latitude": "33.7691",
            "longitude": "-118.2662",
            "GEOID": "6037",
            "CountyState1": "Los Angeles County (California)",
            "CountyState2": "Los Angeles County (CA)"
        },
        {
            "pgmSysId": "400",
            "primaryName": "Haynes Generating Station",
            "facAddr": "6801 Westminster Avenue",
            "cityName": "Long Beach",
            "stateName": "California",
            "postalCode": "90803-4324",
            "latitude": "33.7639",
            "longitude": "-118.0948",
            "GEOID": "6037",
            "CountyState1": "Los Angeles County (California)",
            "CountyState2": "Los Angeles County (CA)"
        },
        {
            "pgmSysId": "401",
            "primaryName": "Middle Gorge",
            "facAddr": "1501 Gorge Rd.",
            "cityName": "Bishop",
            "stateName": "California",
            "postalCode": "93514",
            "latitude": "37.445599",
            "longitude": "-118.569612",
            "GEOID": "6027",
            "CountyState1": "Inyo County (California)",
            "CountyState2": "Inyo County (CA)"
        },
        {
            "pgmSysId": "402",
            "primaryName": "Pleasant Valley",
            "facAddr": "(UNNAMED Road)",
            "cityName": "Bishop",
            "stateName": "California",
            "postalCode": "93514",
            "latitude": "37.41416",
            "longitude": "-118.523889",
            "GEOID": "6027",
            "CountyState1": "Inyo County (California)",
            "CountyState2": "Inyo County (CA)"
        },
        {
            "pgmSysId": "403",
            "primaryName": "San Fernando",
            "facAddr": "14031 San Fernando Rd.",
            "cityName": "Sylmar",
            "stateName": "California",
            "postalCode": "91342",
            "latitude": "34.31536",
            "longitude": "-118.49128",
            "GEOID": "6037",
            "CountyState1": "Los Angeles County (California)",
            "CountyState2": "Los Angeles County (CA)"
        },
        {
            "pgmSysId": "404",
            "primaryName": "Scattergood Generating Station",
            "facAddr": "12700 Vista Del Mar",
            "cityName": "Playa Del Rey",
            "stateName": "California",
            "postalCode": "90293",
            "latitude": "33.917833",
            "longitude": "-118.425667",
            "GEOID": "6037",
            "CountyState1": "Los Angeles County (California)",
            "CountyState2": "Los Angeles County (CA)"
        },
        {
            "pgmSysId": "407",
            "primaryName": "Upper Gorge",
            "facAddr": "1501 Gorge Rd.",
            "cityName": "Bishop",
            "stateName": "California",
            "postalCode": "93514",
            "latitude": "37.445599",
            "longitude": "-118.569612",
            "GEOID": "6027",
            "CountyState1": "Inyo County (California)",
            "CountyState2": "Inyo County (CA)"
        },
        {
            "pgmSysId": "408",
            "primaryName": "Valley Generating Station",
            "facAddr": "11801 Sheldon St",
            "cityName": "Sun Valley",
            "stateName": "California",
            "postalCode": "91352",
            "latitude": "34.2445",
            "longitude": "-118.3926",
            "GEOID": "6037",
            "CountyState1": "Los Angeles County (California)",
            "CountyState2": "Los Angeles County (CA)"
        },
        {
            "pgmSysId": "409",
            "primaryName": "Exchequer",
            "facAddr": "9188 Village Drive",
            "cityName": "Snelling",
            "stateName": "California",
            "postalCode": "95369-9605",
            "latitude": "37.584413",
            "longitude": "-120.273108",
            "GEOID": "6043",
            "CountyState1": "Mariposa County (California)",
            "CountyState2": "Mariposa County (CA)"
        },
        {
            "pgmSysId": "410",
            "primaryName": "Mcswain",
            "facAddr": "7912 Lake Mcclure Road",
            "cityName": "Snelling",
            "stateName": "California",
            "postalCode": "95369",
            "latitude": "37.523656",
            "longitude": "-120.310878",
            "GEOID": "6043",
            "CountyState1": "Mariposa County (California)",
            "CountyState2": "Mariposa County (CA)"
        },
        {
            "pgmSysId": "412",
            "primaryName": "Chicago Park",
            "facAddr": "24199 Lowell Hill Rd",
            "cityName": "Colfax",
            "stateName": "California",
            "postalCode": "95713",
            "latitude": "39.177903",
            "longitude": "-120.890856",
            "GEOID": "6057",
            "CountyState1": "Nevada County (California)",
            "CountyState2": "Nevada County (CA)"
        },
        {
            "pgmSysId": "413",
            "primaryName": "Dutch Flat 2",
            "facAddr": "Diggins Road",
            "cityName": "Dutch Flat",
            "stateName": "California",
            "postalCode": "95714",
            "latitude": "39.2184",
            "longitude": "-120.8352",
            "GEOID": "6057",
            "CountyState1": "Nevada County (California)",
            "CountyState2": "Nevada County (CA)"
        },
        {
            "pgmSysId": "414",
            "primaryName": "Beardsley",
            "facAddr": "* Not Given",
            "cityName": "Mi Wuk Village",
            "stateName": "California",
            "postalCode": "95346",
            "latitude": "38.2046",
            "longitude": "-120.0768",
            "GEOID": "6109",
            "CountyState1": "Tuolumne County (California)",
            "CountyState2": "Tuolumne County (CA)"
        },
        {
            "pgmSysId": "415",
            "primaryName": "Donnells",
            "facAddr": "None",
            "cityName": "Pinecrest",
            "stateName": "California",
            "postalCode": "95364",
            "latitude": "38.246656",
            "longitude": "-120.034072",
            "GEOID": "6109",
            "CountyState1": "Tuolumne County (California)",
            "CountyState2": "Tuolumne County (CA)"
        },
        {
            "pgmSysId": "416",
            "primaryName": "Tulloch",
            "facAddr": "Tulloch Dam Road",
            "cityName": "Jamestown",
            "stateName": "California",
            "postalCode": "95327",
            "latitude": "37.876111",
            "longitude": "-120.605",
            "GEOID": "6109",
            "CountyState1": "Tuolumne County (California)",
            "CountyState2": "Tuolumne County (CA)"
        },
        {
            "pgmSysId": "417",
            "primaryName": "Forbestown",
            "facAddr": "Ponderosa Way",
            "cityName": "Forbestown",
            "stateName": "California",
            "postalCode": "95941",
            "latitude": "39.551012",
            "longitude": "-121.278784",
            "GEOID": "6007",
            "CountyState1": "Butte County (California)",
            "CountyState2": "Butte County (CA)"
        },
        {
            "pgmSysId": "418",
            "primaryName": "Kelly Ridge",
            "facAddr": "Oroville Dam Blvd",
            "cityName": "Oroville",
            "stateName": "California",
            "postalCode": "95965",
            "latitude": "39.531784",
            "longitude": "-121.491247",
            "GEOID": "6007",
            "CountyState1": "Butte County (California)",
            "CountyState2": "Butte County (CA)"
        },
        {
            "pgmSysId": "419",
            "primaryName": "Woodleaf",
            "facAddr": "Forbestown Dam Road",
            "cityName": "Forbestown",
            "stateName": "California",
            "postalCode": "95941",
            "latitude": "39.553811",
            "longitude": "-121.204077",
            "GEOID": "6007",
            "CountyState1": "Butte County (California)",
            "CountyState2": "Butte County (CA)"
        },
        {
            "pgmSysId": "420",
            "primaryName": "Pasadena Water & Power Broadway Power Plant",
            "facAddr": "130 Wallis Street",
            "cityName": "Pasadena",
            "stateName": "California",
            "postalCode": "91105",
            "latitude": "34.12663",
            "longitude": "-118.14579",
            "GEOID": "6037",
            "CountyState1": "Los Angeles County (California)",
            "CountyState2": "Los Angeles County (CA)"
        },
        {
            "pgmSysId": "422",
            "primaryName": "Glenarm",
            "facAddr": "43 East State Street",
            "cityName": "Pasadena",
            "stateName": "California",
            "postalCode": "91105",
            "latitude": "34.124882",
            "longitude": "-118.147604",
            "GEOID": "6037",
            "CountyState1": "Los Angeles County (California)",
            "CountyState2": "Los Angeles County (CA)"
        },
        {
            "pgmSysId": "424",
            "primaryName": "French Meadows",
            "facAddr": "Nw Side Of Hell Hole Reservoir",
            "cityName": "Foresthill",
            "stateName": "California",
            "postalCode": "95631",
            "latitude": "39.0579",
            "longitude": "-120.4091",
            "GEOID": "6061",
            "CountyState1": "Placer County (California)",
            "CountyState2": "Placer County (CA)"
        },
        {
            "pgmSysId": "425",
            "primaryName": "Middle Fork",
            "facAddr": "5000 Mosquito Ridge Rd.",
            "cityName": "Foresthill",
            "stateName": "California",
            "postalCode": "95631",
            "latitude": "39.0575",
            "longitude": "-120.4092",
            "GEOID": "6061",
            "CountyState1": "Placer County (California)",
            "CountyState2": "Placer County (CA)"
        },
        {
            "pgmSysId": "426",
            "primaryName": "Oxbow",
            "facAddr": "9200 Blacksmith Rd.",
            "cityName": "Foresthill",
            "stateName": "California",
            "postalCode": "95631",
            "latitude": "39.003372",
            "longitude": "-120.746651",
            "GEOID": "6061",
            "CountyState1": "Placer County (California)",
            "CountyState2": "Placer County (CA)"
        },
        {
            "pgmSysId": "427",
            "primaryName": "Placer County Water - Ralston Powerhouse",
            "facAddr": "9600 Blacksmith Flat Rd.",
            "cityName": "Foresthill",
            "stateName": "California",
            "postalCode": "95631",
            "latitude": "39.000983",
            "longitude": "-120.724933",
            "GEOID": "6061",
            "CountyState1": "Placer County (California)",
            "CountyState2": "Placer County (CA)"
        },
        {
            "pgmSysId": "428",
            "primaryName": "Parker",
            "facAddr": "Hwy 59 On Merced/Snelling Road",
            "cityName": "Snelling",
            "stateName": "California",
            "postalCode": "95369",
            "latitude": "37.477838",
            "longitude": "-120.444492",
            "GEOID": "6047",
            "CountyState1": "Merced County (California)",
            "CountyState2": "Merced County (CA)"
        },
        {
            "pgmSysId": "430",
            "primaryName": "Camino",
            "facAddr": "Highway 50",
            "cityName": "Camino",
            "stateName": "California",
            "postalCode": "95709",
            "latitude": "38.82881",
            "longitude": "-120.537089",
            "GEOID": "6017",
            "CountyState1": "El Dorado County (California)",
            "CountyState2": "El Dorado County (CA)"
        },
        {
            "pgmSysId": "431",
            "primaryName": "Jaybird",
            "facAddr": "Highway 50",
            "cityName": "Camino",
            "stateName": "California",
            "postalCode": "95709",
            "latitude": "38.83405",
            "longitude": "-120.53176",
            "GEOID": "6017",
            "CountyState1": "El Dorado County (California)",
            "CountyState2": "El Dorado County (CA)"
        },
        {
            "pgmSysId": "432",
            "primaryName": "Loon Lake",
            "facAddr": "Ice House Rd",
            "cityName": "Fresh Pond",
            "stateName": "California",
            "postalCode": "95726",
            "latitude": "39.0015",
            "longitude": "-120.3113",
            "GEOID": "6017",
            "CountyState1": "El Dorado County (California)",
            "CountyState2": "El Dorado County (CA)"
        },
        {
            "pgmSysId": "433",
            "primaryName": "Robbs Peak",
            "facAddr": "Ice House Rd",
            "cityName": "Fresh Pond",
            "stateName": "California",
            "postalCode": "95726",
            "latitude": "38.896511",
            "longitude": "-120.378292",
            "GEOID": "6017",
            "CountyState1": "El Dorado County (California)",
            "CountyState2": "El Dorado County (CA)"
        },
        {
            "pgmSysId": "435",
            "primaryName": "White Rock/Slab Creek",
            "facAddr": "Highway 50",
            "cityName": "Placerville",
            "stateName": "California",
            "postalCode": "95667",
            "latitude": "38.765336",
            "longitude": "-120.787366",
            "GEOID": "6017",
            "CountyState1": "El Dorado County (California)",
            "CountyState2": "El Dorado County (CA)"
        },
        {
            "pgmSysId": "436",
            "primaryName": "Devil Canyon Power Plant",
            "facAddr": "6900 Devil Canyon Rd",
            "cityName": "San Bernardino",
            "stateName": "California",
            "postalCode": "92407-2329",
            "latitude": "34.214075",
            "longitude": "-117.33022",
            "GEOID": "6071",
            "CountyState1": "San Bernardino County (California)",
            "CountyState2": "San Bernardino County (CA)"
        },
        {
            "pgmSysId": "437",
            "primaryName": "Edward C Hyatt",
            "facAddr": "460 Glen Dr.",
            "cityName": "Oroville",
            "stateName": "California",
            "postalCode": "95966",
            "latitude": "39.50832",
            "longitude": "-121.50395",
            "GEOID": "6007",
            "CountyState1": "Butte County (California)",
            "CountyState2": "Butte County (CA)"
        },
        {
            "pgmSysId": "438",
            "primaryName": "Thermalito Diverson Dam",
            "facAddr": "460 Glen Dr.",
            "cityName": "Oroville",
            "stateName": "California",
            "postalCode": "95966",
            "latitude": "39.50832",
            "longitude": "-121.50395",
            "GEOID": "6007",
            "CountyState1": "Butte County (California)",
            "CountyState2": "Butte County (CA)"
        },
        {
            "pgmSysId": "439",
            "primaryName": "Don Pedro",
            "facAddr": "21 Bonds Flat Road",
            "cityName": "La Grange",
            "stateName": "California",
            "postalCode": "95329",
            "latitude": "37.716593",
            "longitude": "-120.444115",
            "GEOID": "6109",
            "CountyState1": "Tuolumne County (California)",
            "CountyState2": "Tuolumne County (CA)"
        },
        {
            "pgmSysId": "440",
            "primaryName": "La Grange",
            "facAddr": "1249 La Grange Dam Road",
            "cityName": "La Grange",
            "stateName": "California",
            "postalCode": "95329",
            "latitude": "37.66514",
            "longitude": "-120.442267",
            "GEOID": "6099",
            "CountyState1": "Stanislaus County (California)",
            "CountyState2": "Stanislaus County (CA)"
        },
        {
            "pgmSysId": "441",
            "primaryName": "Folsom",
            "facAddr": "* Not Given",
            "cityName": "Folsom",
            "stateName": "California",
            "postalCode": "95630",
            "latitude": "38.70675",
            "longitude": "-121.158443",
            "GEOID": "6067",
            "CountyState1": "Sacramento County (California)",
            "CountyState2": "Sacramento County (CA)"
        },
        {
            "pgmSysId": "442",
            "primaryName": "Judge F Carr",
            "facAddr": "* Not Given",
            "cityName": "French Gulch",
            "stateName": "California",
            "postalCode": "96033",
            "latitude": "40.646934",
            "longitude": "-122.626973",
            "GEOID": "6089",
            "CountyState1": "Shasta County (California)",
            "CountyState2": "Shasta County (CA)"
        },
        {
            "pgmSysId": "443",
            "primaryName": "Keswick",
            "facAddr": "* Not Given",
            "cityName": "Redding",
            "stateName": "California",
            "postalCode": "96003",
            "latitude": "40.611858",
            "longitude": "-122.446441",
            "GEOID": "6089",
            "CountyState1": "Shasta County (California)",
            "CountyState2": "Shasta County (CA)"
        },
        {
            "pgmSysId": "444",
            "primaryName": "Nimbus",
            "facAddr": "* Not Given",
            "cityName": "Folsom",
            "stateName": "California",
            "postalCode": "95630",
            "latitude": "38.6761",
            "longitude": "-121.1586",
            "GEOID": "6067",
            "CountyState1": "Sacramento County (California)",
            "CountyState2": "Sacramento County (CA)"
        },
        {
            "pgmSysId": "445",
            "primaryName": "Shasta",
            "facAddr": "N/A",
            "cityName": "Redding",
            "stateName": "California",
            "postalCode": "96003",
            "latitude": "40.717455",
            "longitude": "-122.422274",
            "GEOID": "6089",
            "CountyState1": "Shasta County (California)",
            "CountyState2": "Shasta County (CA)"
        },
        {
            "pgmSysId": "446",
            "primaryName": "Oneill",
            "facAddr": "* Not Given",
            "cityName": "Los Banos",
            "stateName": "California",
            "postalCode": "93635",
            "latitude": "37.098671",
            "longitude": "-121.047718",
            "GEOID": "6047",
            "CountyState1": "Merced County (California)",
            "CountyState2": "Merced County (CA)"
        },
        {
            "pgmSysId": "447",
            "primaryName": "Parker Dam",
            "facAddr": "* Not Given",
            "cityName": "Parker Dam",
            "stateName": "California",
            "postalCode": "92267",
            "latitude": "34.2951",
            "longitude": "-114.1417",
            "GEOID": "6071",
            "CountyState1": "San Bernardino County (California)",
            "CountyState2": "San Bernardino County (CA)"
        },
        {
            "pgmSysId": "448",
            "primaryName": "W R Gianelli",
            "facAddr": "31770 Gonzaga Rd.",
            "cityName": "Gustine",
            "stateName": "California",
            "postalCode": "95322",
            "latitude": "37.05802",
            "longitude": "-121.051092",
            "GEOID": "6047",
            "CountyState1": "Merced County (California)",
            "CountyState2": "Merced County (CA)"
        },
        {
            "pgmSysId": "450",
            "primaryName": "Spring Creek",
            "facAddr": "N/A",
            "cityName": "Redding",
            "stateName": "California",
            "postalCode": "96003",
            "latitude": "40.628115",
            "longitude": "-122.467509",
            "GEOID": "6089",
            "CountyState1": "Shasta County (California)",
            "CountyState2": "Shasta County (CA)"
        },
        {
            "pgmSysId": "451",
            "primaryName": "Trinity",
            "facAddr": "N/A",
            "cityName": "Weaverville",
            "stateName": "California",
            "postalCode": "96093",
            "latitude": "40.797296",
            "longitude": "-122.762553",
            "GEOID": "6105",
            "CountyState1": "Trinity County (California)",
            "CountyState2": "Trinity County (CA)"
        },
        {
            "pgmSysId": "454",
            "primaryName": "Colgate",
            "facAddr": "12700 Lake Francis Rd",
            "cityName": "Dobbins",
            "stateName": "California",
            "postalCode": "95935",
            "latitude": "39.33106",
            "longitude": "-121.19573",
            "GEOID": "6115",
            "CountyState1": "Yuba County (California)",
            "CountyState2": "Yuba County (CA)"
        },
        {
            "pgmSysId": "455",
            "primaryName": "Narrows 2",
            "facAddr": "8764 Scott Forbes Road",
            "cityName": "Browns Valley",
            "stateName": "California",
            "postalCode": "95918",
            "latitude": "39.259544",
            "longitude": "-121.283022",
            "GEOID": "6115",
            "CountyState1": "Yuba County (California)",
            "CountyState2": "Yuba County (CA)"
        },
        {
            "pgmSysId": "457",
            "primaryName": "Bear Valley",
            "facAddr": "25130 Lake Wohlford Rd",
            "cityName": "Escondido",
            "stateName": "California",
            "postalCode": "92027",
            "latitude": "33.167909",
            "longitude": "-117.020033",
            "GEOID": "6073",
            "CountyState1": "San Diego County (California)",
            "CountyState2": "San Diego County (CA)"
        },
        {
            "pgmSysId": "479",
            "primaryName": "Temescal",
            "facAddr": "Eagle Canyon Rd And Cajalco",
            "cityName": "Corona",
            "stateName": "California",
            "postalCode": "92239",
            "latitude": "33.82436",
            "longitude": "-117.50298",
            "GEOID": "6065",
            "CountyState1": "Riverside County (California)",
            "CountyState2": "Riverside County (CA)"
        },
        {
            "pgmSysId": "480",
            "primaryName": "Corona",
            "facAddr": "* Not Given",
            "cityName": "Corona",
            "stateName": "California",
            "postalCode": "92879",
            "latitude": "33.85895",
            "longitude": "-117.6106",
            "GEOID": "6065",
            "CountyState1": "Riverside County (California)",
            "CountyState2": "Riverside County (CA)"
        },
        {
            "pgmSysId": "481",
            "primaryName": "Perris",
            "facAddr": "17801 Lake Perris Ave.",
            "cityName": "Perris",
            "stateName": "California",
            "postalCode": "92571",
            "latitude": "33.85934",
            "longitude": "-117.20366",
            "GEOID": "6065",
            "CountyState1": "Riverside County (California)",
            "CountyState2": "Riverside County (CA)"
        },
        {
            "pgmSysId": "482",
            "primaryName": "Rio Hondo",
            "facAddr": "9840 Milla Way",
            "cityName": "South Gate",
            "stateName": "California",
            "postalCode": "90280",
            "latitude": "33.9421",
            "longitude": "-118.1737",
            "GEOID": "6037",
            "CountyState1": "Los Angeles County (California)",
            "CountyState2": "Los Angeles County (CA)"
        },
        {
            "pgmSysId": "483",
            "primaryName": "Coyote Creek",
            "facAddr": "* Not Given",
            "cityName": "La Habra",
            "stateName": "California",
            "postalCode": "90631",
            "latitude": "33.92493",
            "longitude": "-117.95517",
            "GEOID": "6059",
            "CountyState1": "Orange County (California)",
            "CountyState2": "Orange County (CA)"
        },
        {
            "pgmSysId": "484",
            "primaryName": "Red Mountain Pp",
            "facAddr": "3500 Mission Road",
            "cityName": "Fallbrook",
            "stateName": "California",
            "postalCode": "92028",
            "latitude": "33.391031",
            "longitude": "-117.188121",
            "GEOID": "6073",
            "CountyState1": "San Diego County (California)",
            "CountyState2": "San Diego County (CA)"
        },
        {
            "pgmSysId": "487",
            "primaryName": "Valley View",
            "facAddr": "4226 Valley View Ave.",
            "cityName": "Yorba Linda",
            "stateName": "California",
            "postalCode": "92886",
            "latitude": "33.899711",
            "longitude": "-117.828702",
            "GEOID": "6059",
            "CountyState1": "Orange County (California)",
            "CountyState2": "Orange County (CA)"
        },
        {
            "pgmSysId": "489",
            "primaryName": "Upper Dawson",
            "facAddr": "707 La Grange Dam Road",
            "cityName": "La Grange",
            "stateName": "California",
            "postalCode": "95329",
            "latitude": "37.663161",
            "longitude": "-120.448794",
            "GEOID": "6099",
            "CountyState1": "Stanislaus County (California)",
            "CountyState2": "Stanislaus County (CA)"
        },
        {
            "pgmSysId": "510",
            "primaryName": "Buckeye Geothermal Power Plant",
            "facAddr": "10350 Socrates Mine Road",
            "cityName": "Middletown",
            "stateName": "California",
            "postalCode": "95461",
            "latitude": "38.78487",
            "longitude": "-122.71328",
            "GEOID": "6033",
            "CountyState1": "Lake County (California)",
            "CountyState2": "Lake County (CA)"
        },
        {
            "pgmSysId": "529",
            "primaryName": "Rancho Seco Solar",
            "facAddr": "Twin Cities Rd",
            "cityName": "Herald",
            "stateName": "California",
            "postalCode": "95638",
            "latitude": "38.340015",
            "longitude": "-121.113861",
            "GEOID": "6067",
            "CountyState1": "Sacramento County (California)",
            "CountyState2": "Sacramento County (CA)"
        },
        {
            "pgmSysId": "531",
            "primaryName": "Camp Far West",
            "facAddr": "2464 Pacific Ave",
            "cityName": "Lincoln",
            "stateName": "California",
            "postalCode": "95648",
            "latitude": "39.048802",
            "longitude": "-121.316966",
            "GEOID": "6061",
            "CountyState1": "Placer County (California)",
            "CountyState2": "Placer County (CA)"
        },
        {
            "pgmSysId": "534",
            "primaryName": "Smud Jones Fork Power",
            "facAddr": "Ice House Rd",
            "cityName": "Pollock Pines",
            "stateName": "California",
            "postalCode": "95726",
            "latitude": "38.77908",
            "longitude": "-120.429854",
            "GEOID": "6017",
            "CountyState1": "El Dorado County (California)",
            "CountyState2": "El Dorado County (CA)"
        },
        {
            "pgmSysId": "535",
            "primaryName": "Smud Mcclellan Gas Turbine",
            "facAddr": "4536 Dudley Boulevard",
            "cityName": "Mcclellan",
            "stateName": "California",
            "postalCode": "95652-2512",
            "latitude": "38.65385",
            "longitude": "-121.38972",
            "GEOID": "6067",
            "CountyState1": "Sacramento County (California)",
            "CountyState2": "Sacramento County (CA)"
        },
        {
            "pgmSysId": "537",
            "primaryName": "Camanche",
            "facAddr": "Mcintire Rd",
            "cityName": "Clements",
            "stateName": "California",
            "postalCode": "95227",
            "latitude": "38.2268",
            "longitude": "-121.0245",
            "GEOID": "6077",
            "CountyState1": "San Joaquin County (California)",
            "CountyState2": "San Joaquin County (CA)"
        },
        {
            "pgmSysId": "585",
            "primaryName": "Drop 1",
            "facAddr": "Interstate 8 - Gordons Well",
            "cityName": "Brawley",
            "stateName": "California",
            "postalCode": "92227",
            "latitude": "32.711611",
            "longitude": "-114.942666",
            "GEOID": "6025",
            "CountyState1": "Imperial County (California)",
            "CountyState2": "Imperial County (CA)"
        },
        {
            "pgmSysId": "586",
            "primaryName": "East Highline",
            "facAddr": "2898 Highway 98",
            "cityName": "Holtville",
            "stateName": "California",
            "postalCode": "92250",
            "latitude": "32.699451",
            "longitude": "-115.28245",
            "GEOID": "6025",
            "CountyState1": "Imperial County (California)",
            "CountyState2": "Imperial County (CA)"
        },
        {
            "pgmSysId": "626",
            "primaryName": "Oak Flat",
            "facAddr": "1000 Caribou Road",
            "cityName": "Belden",
            "stateName": "California",
            "postalCode": "95915",
            "latitude": "40.07531",
            "longitude": "-121.16143",
            "GEOID": "6063",
            "CountyState1": "Plumas County (California)",
            "CountyState2": "Plumas County (CA)"
        },
        {
            "pgmSysId": "632",
            "primaryName": "Newcastle",
            "facAddr": "Newcastle- Rocklin Road",
            "cityName": "Auburn",
            "stateName": "California",
            "postalCode": "95603",
            "latitude": "38.835182",
            "longitude": "-121.092982",
            "GEOID": "6061",
            "CountyState1": "Placer County (California)",
            "CountyState2": "Placer County (CA)"
        },
        {
            "pgmSysId": "682",
            "primaryName": "Anita",
            "facAddr": "Smally Road",
            "cityName": "Auberry",
            "stateName": "California",
            "postalCode": "93602",
            "latitude": "37.1281",
            "longitude": "-119.5255",
            "GEOID": "6019",
            "CountyState1": "Fresno County (California)",
            "CountyState2": "Fresno County (CA)"
        },
        {
            "pgmSysId": "714",
            "primaryName": "Toadtown",
            "facAddr": "Toadtown Road",
            "cityName": "Magalia",
            "stateName": "California",
            "postalCode": "95954",
            "latitude": "39.88778",
            "longitude": "-121.59554",
            "GEOID": "6007",
            "CountyState1": "Butte County (California)",
            "CountyState2": "Butte County (CA)"
        },